,City,Cloudiness,Country,Date,Humidity,Temp,Lat,Lng,Wind Speed
0,samarai,36,PG,1548867296,100,81.24,-10.62,150.67,9.66
1,pulandian,0,CN,1548865800,17,24.8,39.4,121.96,13.42
2,puerto ayora,40,EC,1548864000,74,84.2,-0.74,-90.35,17.22
3,tiksi,56,RU,1548867297,0,-32.34,71.64,128.87,14.81
4,vostok,48,RU,1548867297,55,5.37,46.45,135.83,9.22
5,shahrud,0,IR,1548867297,83,24.45,36.42,54.97,2.51
6,mataura,0,NZ,1548867298,87,59.46,-46.19,168.86,1.95
7,nanortalik,0,GL,1548867298,100,30.39,60.14,-45.24,11.56
8,vaini,36,IN,1548867298,53,74.04,15.34,74.49,3.62
9,cape town,20,ZA,1548864000,69,75.2,-33.93,18.42,23.04
10,punta arenas,40,CL,1548864000,57,51.8,-53.16,-70.91,31.09
11,qaanaaq,32,GL,1548867299,94,-12.0,77.48,-69.36,8.88
12,bethel,90,US,1548866400,96,26.6,60.79,-161.76,3.36
13,rikitea,76,PF,1548867300,99,80.34,-23.12,-134.97,9.78
14,esperance,40,TT,1548864000,52,89.6,10.24,-61.45,11.41
15,carnarvon,0,ZA,1548867300,7,78.68,-30.97,22.13,10.22
16,broken hill,56,AU,1548864000,65,77.0,-31.97,141.45,8.05
17,buraydah,40,SA,1548864000,87,60.8,26.33,43.97,2.24
18,ust-nera,0,RU,1548867301,0,-58.53,64.57,143.24,1.61
19,cap malheureux,75,MU,1548864000,88,78.8,-19.98,57.61,3.36
20,hobart,75,AU,1548865860,82,57.2,-42.88,147.33,19.46
21,gubkinskiy,0,RU,1548867302,0,-39.09,64.43,76.5,8.99
22,yellowknife,90,CA,1548864480,69,-7.61,62.45,-114.38,17.22
23,bonnyville,90,CA,1548866520,64,-0.41,54.27,-110.74,12.75
24,port hedland,64,AU,1548865800,79,84.2,-20.31,118.58,13.87
25,saskylakh,64,RU,1548867303,27,-18.75,71.97,114.09,10.11
26,port alfred,88,ZA,1548867250,91,71.43,-33.59,26.89,9.22
27,half moon bay,40,US,1548866100,93,53.96,37.46,-122.43,3.74
28,hermanus,12,ZA,1548867303,70,69.72,-34.42,19.24,6.31
29,ketchikan,90,US,1548866160,87,42.8,55.34,-131.65,8.05
30,marataizes,0,BR,1548867304,75,85.92,-21.04,-40.82,17.6
31,dingzhou,0,CN,1548864000,23,30.2,38.51,115.0,2.24
32,albany,20,US,1548865140,28,23.0,42.65,-73.75,6.87
33,caravelas,12,BR,1548867305,100,82.73,-17.73,-39.27,9.1
34,ust-kuyga,44,RU,1548867305,0,-39.18,70.0,135.55,3.4
35,tilichiki,88,RU,1548867305,75,-3.27,60.47,166.1,4.07
36,arraial do cabo,0,BR,1548864000,55,95.0,-22.97,-42.02,13.87
37,sao filipe,80,CV,1548867306,94,71.97,14.9,-24.5,19.17
38,severo-kurilsk,88,RU,1548867306,100,29.63,50.68,156.12,18.39
39,butaritari,68,KI,1548867307,100,83.36,3.07,172.79,14.7
40,abapo,0,BO,1548867307,45,85.34,-18.83,-63.47,6.31
41,bredasdorp,0,ZA,1548864000,65,77.0,-34.53,20.04,11.41
42,torbay,90,CA,1548864000,92,28.4,47.66,-52.73,12.75
43,ballina,20,IE,1548865800,80,37.4,54.11,-9.15,4.7
44,dikson,0,RU,1548867308,76,-16.77,73.51,80.55,8.66
45,saint-augustin,92,FR,1548864000,87,48.2,44.83,-0.61,12.75
46,prince rupert,90,CA,1548864000,86,41.0,54.32,-130.32,9.17
47,padre paraiso,24,BR,1548867309,53,88.17,-17.07,-41.48,8.99
48,ushuaia,75,AR,1548865800,61,48.2,-54.81,-68.31,26.4
49,taoudenni,0,ML,1548867309,17,70.26,22.68,-3.98,3.29
50,hadishahr,0,AZ,1548865800,86,41.0,38.84,45.66,2.24
51,iztapa,5,GT,1548864000,45,87.8,13.93,-90.71,9.17
52,chokurdakh,8,RU,1548867310,0,-47.42,70.62,147.9,2.84
53,shenjiamen,64,CN,1548867310,91,56.36,29.96,122.3,13.91
54,atuona,68,PF,1548867310,100,80.48,-9.8,-139.03,19.73
55,villa san giovanni,40,IT,1548865200,100,39.2,45.52,9.23,3.36
56,kikwit,44,CD,1548867311,93,73.28,-5.04,18.82,2.62
57,pevek,56,RU,1548867311,100,-22.53,69.7,170.27,5.41
58,jamestown,0,AU,1548867280,87,59.96,-33.21,138.6,12.12
59,salalah,0,OM,1548863400,64,75.2,17.01,54.1,3.36
60,te anau,48,NZ,1548867227,88,52.76,-45.41,167.72,2.84
61,iralaya,40,HN,1548864000,69,82.4,15.0,-83.23,4.7
62,sisimiut,68,GL,1548867312,100,4.74,66.94,-53.67,1.95
63,maltahohe,0,NA,1548867312,15,85.47,-24.83,16.98,11.34
64,tuktoyaktuk,90,CA,1548865800,83,-4.01,69.44,-133.03,29.97
65,atasu,80,KZ,1548867316,77,15.09,48.68,71.64,7.65
66,hithadhoo,48,MV,1548867316,98,84.08,-0.6,73.08,18.28
67,avarua,75,CK,1548864000,83,80.6,-21.21,-159.78,11.41
68,katsuura,75,JP,1548864000,70,42.8,33.93,134.5,8.05
69,mar del plata,0,AR,1548867317,34,67.74,-46.43,-67.52,10.78
70,ponta do sol,0,BR,1548867317,41,91.01,-20.63,-46.0,4.41
71,vila velha,20,BR,1548864000,55,89.6,-3.71,-38.6,14.99
72,chuy,80,UY,1548867318,98,80.25,-33.69,-53.46,4.74
73,dingle,56,PH,1548867318,90,74.13,11.0,122.67,12.01
74,cockburn town,0,TC,1548867318,98,78.81,21.46,-71.14,11.45
75,lebu,0,ET,1548867318,43,54.15,8.96,38.73,6.64
76,vestmanna,88,FO,1548865200,68,28.4,62.16,-7.17,16.11
77,sangmelima,8,CM,1548867319,88,74.49,2.93,11.98,2.17
78,bluff,68,AU,1548867319,77,72.6,-23.58,149.07,11.12
79,champoton,5,MX,1548862800,64,71.6,19.35,-90.72,11.41
80,honiara,24,SB,1548867319,100,72.96,-9.43,159.96,2.39
81,alice springs,0,AU,1548865800,37,84.2,-23.7,133.88,3.36
82,cabedelo,75,BR,1548864000,52,89.6,-6.97,-34.84,14.99
83,bereda,75,ES,1548866400,93,55.4,43.27,-7.54,12.75
84,zhob,92,PK,1548867341,97,32.82,31.34,69.45,2.06
85,college,1,US,1548863880,94,14.54,64.86,-147.8,9.44
86,barrow,0,AR,1548867342,52,81.87,-38.31,-60.23,18.16
87,nome,40,US,1548866100,31,46.76,30.04,-94.42,6.93
88,luang prabang,20,LA,1548867343,92,58.61,19.89,102.14,1.95
89,manavalakurichi,20,IN,1548865800,70,84.2,8.13,77.3,4.7
90,georgetown,40,GY,1548864000,74,82.4,6.8,-58.16,16.11
91,vilcun,0,CL,1548864000,52,66.2,-38.65,-72.23,5.82
92,havelock,1,US,1548863880,34,42.08,34.88,-76.9,3.36
93,ancud,75,CL,1548864000,62,55.4,-41.87,-73.83,5.82
94,benghazi,40,LY,1548865320,76,53.6,32.12,20.07,11.41
95,norman wells,90,CA,1548864000,77,5.0,65.28,-126.83,21.92
96,wahiawa,75,US,1548865740,93,71.06,21.5,-158.02,12.75
97,husavik,0,CA,1548867350,48,-29.64,50.56,-96.99,4.29
98,mattawa,90,CA,1548866580,84,5.0,46.32,-78.7,10.29
99,sinop,56,TR,1548867351,73,54.74,42.03,35.15,11.56
100,rio grande,40,BR,1548864000,74,84.2,-32.03,-52.1,9.17
101,nikolskoye,75,RU,1548865800,86,33.8,59.7,30.79,8.95
102,airai,88,TL,1548867352,94,69.41,-8.93,125.41,1.05
103,najran,5,SA,1548864000,40,71.6,17.54,44.22,8.05
104,hamilton,20,CA,1548866700,64,3.2,43.26,-79.87,27.51
105,kenai,90,US,1548863760,95,33.08,60.55,-151.26,1.83
106,busselton,0,AU,1548867353,100,66.44,-33.64,115.35,18.84
107,popondetta,32,PG,1548867353,97,69.14,-8.77,148.24,1.72
108,argelia,40,CO,1548864000,73,77.0,4.73,-76.12,5.82
109,padang,44,ID,1548867354,100,84.21,-0.92,100.36,6.98
110,carutapera,64,BR,1548867354,75,85.16,-1.2,-46.02,12.68
111,maldonado,75,UY,1548864000,74,80.6,-34.91,-54.96,14.99
112,conceicao do araguaia,44,BR,1548867355,98,80.25,-8.26,-49.26,6.76
113,vardo,90,US,1548866520,70,32.0,39.62,-77.74,21.92
114,ahuimanu,75,US,1548865740,93,71.06,21.44,-157.84,12.75
115,bathsheba,75,BB,1548864000,69,80.6,13.22,-59.52,21.92
116,kapaa,40,US,1548863760,78,71.06,22.08,-159.32,21.92
117,talnakh,0,RU,1548867356,0,-51.65,69.49,88.39,2.39
118,castro,75,CL,1548864000,62,55.4,-42.48,-73.76,5.82
119,santa cruz,90,US,1548865500,100,51.98,36.97,-122.03,2.51
120,kondinskoye,0,RU,1548867358,76,-17.0,59.65,67.41,6.2
121,tigre,90,AR,1548864000,83,80.6,-34.42,-58.58,8.05
122,grand gaube,75,MU,1548864000,88,78.8,-20.01,57.66,3.36
123,ostroleka,40,PL,1548865800,92,30.2,53.09,21.58,3.36
124,hami,0,CN,1548867366,44,-7.5,42.84,93.51,3.06
125,guerrero negro,36,MX,1548867367,88,57.84,27.97,-114.04,4.29
126,kavieng,44,PG,1548867367,100,84.12,-2.57,150.8,10.22
127,hervey bay,92,AU,1548864000,83,71.6,-25.3,152.85,6.93
128,tsabong,20,BW,1548867367,81,69.0,-26.02,22.4,3.4
129,soledade,40,BR,1548864000,43,89.6,-7.06,-36.37,6.93
130,lagoa,75,PT,1548864000,87,59.0,37.14,-8.45,16.11
131,upernavik,80,GL,1548867376,100,7.44,72.79,-56.15,9.1
132,khorramabad,20,IR,1548863460,75,42.8,33.48,48.35,1.95
133,chara,20,GR,1548865200,62,51.8,39.42,22.43,9.17
134,geraldton,90,CA,1548864000,61,-20.21,49.72,-86.95,12.75
135,east london,75,ZA,1548864000,83,75.2,-33.02,27.91,5.82
136,lata,92,IN,1548867377,100,35.25,30.78,78.62,1.83
137,provideniya,0,RU,1548867378,100,15.41,64.42,-173.23,24.87
138,ludvika,90,SE,1548865200,92,12.2,60.15,15.18,2.24
139,inuvik,90,CA,1548864000,77,-2.21,68.36,-133.71,14.99
140,kaabong,0,UG,1548867388,36,74.49,3.51,34.14,8.21
141,saginaw,40,US,1548866160,59,2.3,43.42,-83.95,21.92
142,rasra,12,IN,1548867389,88,51.54,25.86,83.86,2.84
143,ostrovnoy,88,RU,1548867389,86,8.43,68.05,39.51,18.05
144,svetlogorsk,90,RU,1548865800,78,14.0,53.14,59.15,13.42
145,port elizabeth,1,US,1548863760,57,30.92,39.31,-74.98,8.05
146,saint-pierre,75,FR,1548865800,91,37.4,48.95,4.24,8.05
147,dagana,0,MR,1548864000,17,91.4,16.52,-15.51,2.24
148,vila franca do campo,75,PT,1548864000,88,62.6,37.72,-25.43,18.34
149,codrington,44,AU,1548864000,94,71.6,-28.95,153.24,4.7
150,kloulklubed,90,PW,1548865620,94,77.0,7.04,134.26,12.75
151,belyy yar,0,RU,1548865800,37,21.2,53.6,91.39,11.18
152,jalapa,40,GT,1548864000,67,62.6,14.63,-89.98,13.87
153,crepy-en-valois,75,FR,1548865800,87,37.4,49.23,2.89,5.82
154,porto novo,20,BR,1548864000,30,93.2,-23.68,-45.44,5.82
155,biak,48,ID,1548867393,100,77.06,-0.91,122.88,2.39
156,tadotsu,56,JP,1548867393,100,35.84,34.27,133.75,2.17
157,marawi,64,PH,1548867393,97,65.94,8.0,124.29,2.17
158,lorengau,36,PG,1548867394,100,82.32,-2.02,147.27,10.78
159,coldwater,1,US,1548867300,51,-9.94,41.94,-85.0,17.22
160,moravska trebova,0,CZ,1548864000,86,26.6,49.76,16.66,6.93
161,kruszwica,40,PL,1548865800,79,28.4,52.67,18.33,9.17
162,kaspiyskiy,76,RU,1548867405,88,26.61,45.39,47.37,9.22
163,thompson,5,CA,1548864000,65,-40.01,55.74,-97.86,4.7
164,sikeston,1,US,1548866100,30,19.4,36.88,-89.59,4.7
165,hilo,40,US,1548863580,83,68.0,19.71,-155.08,13.87
166,yamada,75,JP,1548864000,100,37.4,36.58,137.08,3.36
167,great bend,1,US,1548863760,66,10.94,38.36,-98.78,12.75
168,ilulissat,90,GL,1548863400,71,8.6,69.22,-51.1,14.99
169,manaure,75,CO,1548864000,55,86.0,11.78,-72.45,11.41
170,arica,75,CL,1548864000,73,77.0,-18.48,-70.32,8.05
171,tongren,92,CN,1548867408,99,41.51,27.72,109.18,5.64
172,atbasar,88,KZ,1548867408,72,12.21,51.81,68.36,6.64
173,camaqua,64,BR,1548867153,84,83.81,-30.85,-51.81,4.63
174,cherskiy,48,RU,1548867409,32,-21.95,68.75,161.3,3.62
175,newport,75,GB,1548865200,74,41.0,51.59,-3.0,9.17
176,sabang,68,PH,1548867410,98,74.63,13.72,123.58,11.01
177,clyde river,90,CA,1548864000,83,-13.01,70.47,-68.59,2.24
178,porto belo,20,BR,1548864000,75,96.8,-27.15,-48.54,11.41
179,devonport,0,AU,1548867410,96,55.5,-41.18,146.36,5.08
180,mattru,32,SL,1548867410,74,83.31,7.62,-11.83,6.53
181,veydelevka,88,RU,1548867411,98,28.5,50.15,38.45,9.66
182,porto walter,56,BR,1548867411,67,86.69,-8.27,-72.74,2.95
183,tshikapa,8,CD,1548867414,91,73.23,-6.42,20.79,2.51
184,kasamwa,0,TZ,1548867414,87,67.34,-2.84,32.42,2.73
185,henties bay,0,NA,1548867415,88,65.76,-22.12,14.28,9.1
186,marovoay,20,MG,1548864000,83,82.4,-16.11,46.64,6.93
187,rancho veloz,20,CU,1548863520,50,75.2,22.88,-80.39,10.29
188,kaeo,0,NZ,1548867419,91,62.39,-35.1,173.78,6.76
189,talaya,75,RU,1548864000,84,5.0,55.79,84.89,6.71
190,mahanoro,92,MG,1548867423,100,71.97,-19.9,48.8,3.18
191,touros,40,BR,1548865800,59,89.6,-5.2,-35.46,19.46
192,broome,20,GB,1548865500,86,37.4,52.47,1.45,3.36
193,itarema,88,BR,1548867423,80,83.67,-2.92,-39.92,11.01
194,somerville,1,US,1548867060,35,28.94,40.57,-74.61,6.93
195,lavrentiya,0,RU,1548867424,72,12.93,65.58,-170.99,27.67
196,kruisfontein,80,ZA,1548867424,87,67.02,-34.0,24.73,7.76
197,yenagoa,44,NG,1548867425,83,80.48,4.92,6.26,5.53
198,faanui,48,PF,1548867428,100,82.77,-16.48,-151.75,21.85
199,chapais,75,CA,1548866820,71,6.8,49.78,-74.86,9.17
200,niquelandia,0,BR,1548867429,58,91.28,-14.47,-48.46,6.53
201,batagay-alyta,32,RU,1548867429,0,-40.17,67.8,130.41,2.84
202,port hardy,90,CA,1548864000,100,37.4,50.7,-127.42,2.24
203,genhe,32,CN,1548867430,66,-11.15,50.78,121.52,6.98
204,puerto leguizamo,24,CO,1548867440,65,88.98,-0.19,-74.78,3.06
205,namibe,20,AO,1548867440,100,76.56,-15.19,12.15,13.47
206,dongsheng,92,CN,1548867440,100,36.33,29.72,112.52,15.03
207,mildura,0,AU,1548864000,27,75.2,-34.18,142.16,12.75
208,port-gentil,75,GA,1548864000,94,78.8,-0.72,8.78,6.93
209,rongcheng,88,CN,1548867441,64,31.29,37.16,122.42,19.28
210,rundu,12,NA,1548867441,50,79.71,-17.91,19.77,7.99
211,warrenton,20,ZA,1548867442,69,72.11,-28.11,24.85,3.29
212,dudinka,0,RU,1548867442,0,-45.66,69.41,86.18,8.99
213,tamsweg,75,AT,1548865200,79,28.4,47.13,13.81,1.12
214,sao joao da barra,0,BR,1548864000,38,93.2,-21.64,-41.05,16.11
215,novyy buh,90,UA,1548866460,100,35.6,47.69,32.52,8.95
216,shu,92,KZ,1548867447,73,35.39,43.6,73.76,6.2
217,salinopolis,12,BR,1548867447,100,80.97,-0.61,-47.36,15.59
218,atar,0,MR,1548867447,12,83.18,20.52,-13.05,6.08
219,huntsville,20,US,1548866400,46,32.0,34.73,-86.59,6.93
220,natal,40,BR,1548865800,59,89.6,-5.81,-35.21,19.46
221,hambantota,32,LK,1548867448,99,79.62,6.12,81.12,18.95
222,verkhnyaya inta,0,RU,1548867448,78,-17.72,65.99,60.32,3.51
223,senador pompeu,0,BR,1548867449,52,88.58,-5.58,-39.37,6.76
224,emba,75,CY,1548865800,76,59.0,34.81,32.42,13.87
225,babu,0,CN,1548867449,87,48.21,23.23,104.89,1.83
226,dakar,36,SN,1548865800,36,80.6,14.69,-17.45,12.75
227,lufilufi,20,WS,1548864000,94,75.2,-13.87,-171.6,4.7
228,yar-sale,8,RU,1548867450,0,-37.25,66.83,70.83,9.55
229,lasa,75,CY,1548865800,76,59.0,34.92,32.53,13.87
230,tabou,44,CI,1548867451,99,82.68,4.42,-7.36,13.69
231,pangnirtung,75,CA,1548864000,75,-16.61,66.15,-65.72,4.41
232,tura,0,IN,1548867451,77,48.89,25.52,90.21,3.85
233,dzilam gonzalez,0,MX,1548867451,49,81.74,21.28,-88.93,4.18
234,mercedes,48,UY,1548867452,80,85.83,-33.25,-58.03,10.78
235,cayce,1,US,1548866100,38,39.2,33.97,-81.07,9.17
236,chern,92,RU,1548867452,96,33.41,53.45,36.91,12.68
237,rawson,0,AR,1548867452,30,70.98,-43.3,-65.11,14.14
238,walvis bay,0,NA,1548864000,53,75.2,-22.95,14.51,17.22
239,hasaki,40,JP,1548865800,100,32.0,35.73,140.83,1.12
240,burla,76,RU,1548867453,56,-5.61,53.34,78.33,2.95
241,kuching,75,MY,1548865800,100,75.2,1.56,110.34,2.24
242,sioux lookout,75,CA,1548864000,66,-31.01,50.1,-91.92,6.93
243,mayo,90,CA,1548864000,85,14.0,63.59,-135.9,5.82
244,bekhtery,90,UA,1548865800,87,44.6,46.25,32.3,11.18
245,notodden,90,NO,1548863400,85,23.0,59.56,9.26,1.12
246,chernihiv,92,UA,1548867241,94,39.39,51.49,31.29,15.03
247,ikom,12,NG,1548867459,93,76.38,5.96,8.72,3.62
248,conroe,90,US,1548866100,42,46.94,30.31,-95.46,4.74
249,ixtapa,20,MX,1548863160,64,71.6,20.71,-105.21,4.7
250,cidreira,24,BR,1548867459,89,83.36,-30.17,-50.22,8.43
251,alofi,92,NU,1548864000,94,75.2,-19.06,-169.92,5.82
252,balakhta,76,RU,1548867460,83,12.26,55.38,91.62,4.97
253,gbongan,24,NG,1548867460,79,83.09,7.47,4.35,3.62
254,lazo,44,MD,1548867460,91,36.69,47.89,27.93,9.22
255,teya,40,MX,1548863040,69,73.4,21.05,-89.07,4.7
256,longyearbyen,75,NO,1548863400,68,30.2,78.22,15.63,19.46
257,aklavik,75,CA,1548864000,70,-2.21,68.22,-135.01,18.34
258,san jose,80,PH,1548867278,100,67.83,15.79,120.99,2.17
259,ribeira grande,75,PT,1548864000,88,64.4,38.52,-28.7,14.99
260,ola,76,RU,1548867462,100,-0.84,59.58,151.3,13.13
261,berlevag,75,NO,1548863400,73,23.0,70.86,29.09,18.34
262,naryan-mar,0,RU,1548867463,44,-27.57,67.67,53.09,11.23
263,zabol,0,IR,1548864000,41,57.2,31.03,61.49,11.41
264,dubbo,80,AU,1548865800,53,77.0,-32.25,148.6,4.7
265,itoman,20,JP,1548865800,72,64.4,26.12,127.67,2.24
266,santiago,0,CL,1548864000,45,84.2,-33.44,-70.65,4.7
267,tasiilaq,75,GL,1548863400,61,15.8,65.61,-37.64,3.36
268,souillac,92,FR,1548865800,93,41.0,45.6,-0.6,9.78
269,hualmay,0,PE,1548867465,58,82.19,-11.1,-77.61,6.87
270,barcelos,75,PT,1548864000,100,55.4,41.53,-8.62,10.29
271,folkestone,1,US,1548867300,38,39.2,34.1,-80.94,9.17
272,juneau,90,US,1548865980,100,39.02,58.3,-134.42,2.62
273,takoradi,0,GH,1548867466,95,82.77,4.89,-1.75,8.21
274,saint anthony,90,US,1548863760,75,1.94,43.97,-111.68,4.7
275,mecca,20,SA,1548867467,76,72.33,21.43,39.83,3.62
276,kargasok,0,RU,1548867467,54,-10.38,59.06,80.87,6.76
277,iqaluit,20,CA,1548864000,67,-22.01,63.75,-68.52,12.75
278,ekhabi,80,RU,1548867468,76,11.4,53.51,142.97,11.23
279,new norfolk,75,AU,1548865860,82,57.2,-42.78,147.06,19.46
280,khilok,8,RU,1548867469,51,6.27,51.36,110.46,9.66
281,grand-santi,80,GF,1548867469,84,79.13,4.27,-54.38,3.74
282,rincon,1,US,1548867000,38,41.18,32.3,-81.24,9.17
283,aripuana,88,BR,1548867470,85,79.98,-9.17,-60.63,2.17
284,umm kaddadah,12,SD,1548867470,29,75.84,13.6,26.69,9.89
285,chalus,40,IR,1548864000,87,51.8,36.66,51.42,11.41
286,cayenne,75,GF,1548865800,70,86.0,4.94,-52.33,12.75
287,lohardaga,0,IN,1548865800,50,57.2,23.43,84.68,3.18
288,yulara,12,AU,1548864000,22,86.0,-25.24,130.99,6.93
289,vanimo,56,PG,1548867472,100,80.39,-2.67,141.3,18.84
290,maniitsoq,0,GL,1548867472,100,4.29,65.42,-52.9,6.76
291,tarata,75,PE,1548864000,73,77.0,-17.47,-70.03,8.05
292,klaksvik,76,FO,1548865200,68,28.4,62.23,-6.59,16.11
293,dandong,24,CN,1548867473,16,15.18,40.12,124.37,10.0
294,loukhi,92,RU,1548867473,91,18.83,66.08,33.04,6.2
295,mon,0,IN,1548867473,87,50.51,26.73,95.03,3.18
296,ruwi,0,OM,1548863400,60,75.2,23.6,58.55,2.24
297,novozybkov,90,RU,1548865800,100,33.8,52.54,31.93,13.42
298,laguna,40,MX,1548862860,45,62.6,27.52,-110.01,9.17
299,khatanga,20,RU,1548867475,0,-43.37,71.98,102.47,3.18
300,cabo san lucas,5,MX,1548863100,52,68.0,22.89,-109.91,3.36
301,bijar,0,IR,1548867475,68,20.99,35.87,47.6,2.95
302,mahebourg,75,MU,1548864000,88,78.8,-20.41,57.7,3.36
303,mwense,92,ZM,1548867476,80,74.09,-10.39,28.7,3.18
304,buala,56,SB,1548867476,92,82.28,-8.15,159.59,6.87
305,saint george,20,GR,1548867000,87,51.8,39.45,22.34,5.97
306,vuktyl,64,RU,1548867477,62,-7.59,63.86,57.31,4.74
307,victoria,75,BN,1548865800,88,80.6,5.28,115.24,9.17
308,tuatapere,56,NZ,1548867478,79,65.13,-46.13,167.69,7.31
309,coihaique,75,CL,1548864000,47,55.4,-45.58,-72.07,6.93
310,sebastian,20,US,1548863760,67,64.94,27.82,-80.47,12.75
311,bayeux,0,FR,1548865800,93,41.0,49.28,-0.7,13.87
312,mae sai,0,MM,1548864000,94,68.0,20.44,99.89,2.28
313,itambacuri,0,BR,1548867479,45,91.23,-18.04,-41.68,7.99
314,dawlatabad,68,AF,1548867479,84,43.08,36.41,64.91,7.2
315,yelan,80,RU,1548867480,84,12.84,50.95,43.74,7.43
316,mogzon,44,RU,1548867480,51,5.82,51.74,111.97,11.23
317,marquard,36,ZA,1548867480,97,57.44,-28.66,27.43,3.62
318,paratinga,8,BR,1548867481,33,95.91,-12.69,-43.18,5.08
319,moron,20,VE,1548864000,51,86.0,10.49,-68.2,2.62
320,mitsamiouli,20,KM,1548864000,70,84.2,-11.38,43.28,2.24
321,dunedin,0,NZ,1548867281,88,55.46,-45.87,170.5,2.73
322,voh,12,NC,1548867485,100,76.88,-20.95,164.69,12.91
323,karratha,20,AU,1548867485,81,80.16,-20.74,116.85,12.46
324,varhaug,20,NO,1548865200,59,37.4,58.61,5.65,18.34
325,san patricio,0,PY,1548867486,51,95.46,-26.98,-56.83,7.43
326,ust-karsk,0,RU,1548867486,25,-18.75,52.71,118.82,2.39
327,otane,0,NZ,1548867486,86,57.26,-39.89,176.62,3.4
328,mokhsogollokh,32,RU,1548867486,0,-30.32,61.4,128.95,2.95
329,berdyaush,88,RU,1548867486,71,8.21,55.17,59.15,3.29
330,namatanai,36,PG,1548867487,100,82.28,-3.66,152.44,12.01
331,olinda,75,EC,1548864000,83,80.6,-2.03,-79.75,5.82
332,topolovgrad,75,BG,1548864000,81,51.8,42.08,26.33,4.7
333,pitimbu,75,BR,1548864000,52,89.6,-7.47,-34.81,14.99
334,dimbokro,44,CI,1548867488,53,88.17,6.65,-4.7,4.74
335,russell,0,AR,1548864000,59,89.6,-33.01,-68.8,9.17
336,la ronge,75,CA,1548864000,73,-36.41,55.1,-105.3,4.7
337,aracuai,0,BR,1548867489,32,93.53,-16.85,-42.07,10.11
338,gambela,0,ET,1548867489,77,68.06,8.25,34.59,2.39
339,nouadhibou,0,MR,1548864000,60,69.8,20.93,-17.03,19.46
340,mount barker,75,AU,1548865800,52,66.2,-35.06,138.86,16.11
341,thunder bay,75,CA,1548864000,56,-16.61,48.41,-89.26,17.22
342,mount gambier,40,AU,1548864000,71,57.2,-37.83,140.78,8.05
343,huarmey,8,PE,1548867490,48,83.54,-10.07,-78.15,4.74
344,sharjah,0,AE,1548864000,60,71.6,25.36,55.39,9.17
345,japura,36,ID,1548867491,96,73.59,-0.42,102.29,1.5
346,kununurra,40,AU,1548865800,58,86.0,-15.77,128.74,8.05
347,meadow lake,90,CA,1548865080,70,-5.81,54.13,-108.44,12.75
348,saldanha,92,PT,1548867492,98,44.93,41.42,-6.55,12.68
349,lompoc,90,US,1548866160,100,53.06,34.64,-120.46,4.7
350,saint-denis,90,FR,1548865800,78,37.4,48.94,2.36,5.82
351,baturaja,88,ID,1548867494,99,71.52,-4.12,104.17,3.4
352,bonavista,92,CA,1548867489,95,30.39,48.65,-53.11,12.68
353,brzesko,20,PL,1548865800,86,30.2,49.97,20.61,5.82
354,new iberia,1,US,1548867180,32,46.04,30.0,-91.82,9.17
355,vao,48,EE,1548867495,87,27.24,59.1,26.19,7.99
356,ruiz,40,MX,1548863220,62,57.2,21.95,-105.15,2.73
357,puerto escondido,5,MX,1548862800,57,80.6,15.86,-97.07,2.17
358,tabriz,75,IR,1548865800,69,39.2,38.08,46.29,6.93
359,atherton,40,GB,1548865200,91,41.0,53.52,-2.49,2.24
360,casa nova,8,BR,1548867496,65,84.39,-11.77,-39.23,10.78
361,fortuna,0,ES,1548865800,47,62.6,38.18,-1.13,10.29
362,kodiak,75,US,1548866100,14,-5.81,39.95,-94.76,5.82
363,boyolangu,68,ID,1548867497,97,70.49,-8.09,111.9,2.17
364,srivardhan,0,IN,1548867497,91,64.95,18.03,73.02,5.19
365,camacha,40,PT,1548864000,67,62.6,33.08,-16.33,12.75
366,sal rei,75,CV,1548864000,64,77.0,16.18,-22.92,18.34
367,manggar,92,ID,1548867498,100,74.94,-2.88,108.27,2.95
368,sungaipenuh,48,ID,1548867498,96,65.22,-2.08,101.38,0.6
369,nouakchott,0,MR,1548865800,10,87.8,18.08,-15.98,12.75
370,puerto baquerizo moreno,40,EC,1548864000,78,82.4,-0.9,-89.6,14.99
371,non sung,64,TH,1548864000,64,75.2,15.18,102.26,3.36
372,muros,75,ES,1548866880,93,53.6,42.77,-9.06,13.87
373,cochrane,32,CL,1548867499,36,54.38,-47.25,-72.57,3.62
374,grindavik,75,IS,1548865800,62,24.8,63.84,-22.43,19.46
375,obo,12,CF,1548867500,89,74.76,5.39,26.49,4.97
376,mozarlandia,0,BR,1548867500,67,90.56,-14.74,-50.57,7.2
377,inhambane,40,MZ,1548864000,78,80.6,-23.87,35.38,4.7
378,bambous virieux,75,MU,1548864000,88,78.8,-20.34,57.76,3.36
379,srednekolymsk,24,RU,1548867501,0,-45.08,67.46,153.71,2.39
380,pelotas,40,BR,1548864000,74,84.2,-31.77,-52.34,9.17
381,shakhtinsk,0,KZ,1548865800,52,15.8,49.71,72.59,17.9
382,saint-philippe,75,CA,1548866100,53,18.32,45.36,-73.48,5.82
383,mackay,90,CA,1548864000,92,26.6,53.65,-115.58,3.36
384,rocha,76,UY,1548867246,100,78.41,-34.48,-54.34,2.62
385,kahului,40,US,1548863760,84,71.06,20.89,-156.47,11.41
386,gondanglegi,68,ID,1548867503,97,70.49,-7.75,112.01,2.17
387,bilibino,44,RU,1548867503,29,-21.05,68.06,166.44,2.17
388,mangla,92,IN,1548867503,91,37.68,32.54,76.11,0.94
389,el alto,75,BO,1548864000,71,53.6,-16.5,-68.19,12.75
390,fano,75,IT,1548865200,75,44.6,43.84,13.01,9.17
391,mogadishu,0,SO,1548867505,99,78.59,2.04,45.34,21.18
392,ninghai,92,CN,1548864000,87,53.6,29.29,121.42,2.24
393,launceston,90,AU,1548865920,77,68.0,-41.43,147.14,16.11
394,pujili,40,EC,1548864000,63,62.6,-0.95,-78.68,10.29
395,saltillo,40,MX,1548862800,45,41.0,25.42,-100.99,6.93
396,vestmannaeyjar,40,IS,1548864840,54,30.2,63.44,-20.27,6.93
397,narsaq,75,GL,1548863400,36,30.2,60.91,-46.05,5.82
398,yuzhnyy,92,RU,1548867506,96,25.8,53.54,39.45,12.57
399,granollers,20,ES,1548865800,50,53.6,41.61,2.29,17.22
400,kumluca,92,TR,1548867507,97,33.59,36.37,30.29,1.61
401,wenling,36,CN,1548867507,93,52.44,28.38,121.38,3.18
402,tabas,0,IR,1548867507,67,34.71,33.6,56.92,2.62
403,zhigansk,0,RU,1548867508,0,-43.82,66.77,123.37,2.06
404,goderich,36,CA,1548867508,100,0.87,43.74,-81.71,24.76
405,dovolnoye,88,RU,1548867508,70,1.68,54.5,79.67,3.18
406,nelson bay,32,AU,1548865800,78,75.2,-32.72,152.14,5.82
407,auki,0,NG,1548867509,31,79.31,12.18,6.51,4.74
408,gayeri,0,BF,1548867509,23,84.26,12.65,0.49,4.74
409,willmar,1,US,1548867300,60,-21.28,45.12,-95.04,13.87
410,kaitangata,12,NZ,1548867510,84,59.33,-46.28,169.85,0.83
411,maruoka,75,JP,1548864000,100,37.4,36.15,136.27,3.36
412,kvitok,68,RU,1548867510,63,15.09,56.08,98.48,7.09
413,hay river,90,CA,1548864000,77,-2.21,60.82,-115.79,9.17
414,lethem,8,GY,1548867511,41,95.69,3.38,-59.8,19.28
415,bondo,56,CD,1548867511,73,79.35,3.81,23.69,2.62
416,albert lea,1,US,1548867360,45,-22.01,43.65,-93.37,16.11
417,kinablangan,92,PH,1548867511,100,73.68,7.69,126.55,10.67
418,plettenberg bay,92,ZA,1548867512,99,69.23,-34.05,23.37,6.64
419,constitucion,20,MX,1548863340,15,57.2,23.99,-104.67,11.41
420,verkh-usugli,48,RU,1548867512,61,-9.39,52.7,115.17,2.95
421,kamenka,64,RU,1548867512,88,13.16,53.19,44.05,8.66
422,tiznit,0,MA,1548867513,79,60.59,29.7,-9.73,5.41
423,phangnga,20,TH,1548865800,74,78.8,8.45,98.53,10.29
424,ouegoa,48,NC,1548867513,92,74.81,-20.34,164.44,8.88
425,mount isa,90,AU,1548865800,100,77.0,-20.73,139.49,3.36
426,port lincoln,88,AU,1548867517,99,63.69,-34.72,135.86,12.57
427,yantal,48,RU,1548867517,71,-3.27,56.85,105.25,2.51
428,borujerd,0,IR,1548864000,75,42.8,33.89,48.76,4.7
429,puerto bello,32,PH,1548867517,96,74.31,10.97,124.53,6.76
430,lamu,44,ID,1548867518,100,72.6,0.57,122.3,3.06
431,meulaboh,68,ID,1548867518,100,80.21,4.14,96.13,4.85
432,fayaoue,80,NC,1548867518,100,78.9,-20.65,166.53,18.95
433,wamba,20,CD,1548867518,75,76.79,2.14,27.99,0.83
434,fallon,1,US,1548863760,82,-0.05,46.84,-105.12,5.82
435,byron bay,76,AU,1548865800,88,71.6,-28.65,153.62,4.7
436,long beach,90,US,1548867360,34,46.04,30.35,-89.15,9.17
437,lixourion,40,GR,1548863400,87,51.8,38.2,20.43,3.36
438,port macquarie,8,AU,1548864000,78,73.4,-31.43,152.91,8.05
439,sitka,0,US,1548867520,54,26.48,37.17,-99.65,13.24
440,susanville,1,US,1548866100,94,32.0,40.42,-120.65,2.39
441,vaitape,56,PF,1548867521,100,82.32,-16.52,-151.75,22.75
442,moa,12,CU,1548867521,68,78.14,20.66,-74.95,4.18
443,nichinan,76,JP,1548867521,100,46.91,31.65,131.31,7.99
444,dhandhuka,0,IN,1548867522,55,55.41,22.38,71.98,1.05
445,ust-barguzin,64,RU,1548867522,59,11.36,53.41,109.03,7.65
446,ilo,12,PE,1548864000,74,80.6,-17.65,-71.34,4.7
447,bubaque,0,GW,1548867522,83,83.36,11.28,-15.83,6.2
448,tual,80,ID,1548867523,100,81.29,-5.67,132.75,17.38
449,castrillon,75,ES,1548865800,81,50.0,43.4,-6.79,18.34
450,frutal,20,BR,1548867524,56,92.36,-20.02,-48.93,2.62
451,mackenzie,90,CA,1548864000,100,19.4,55.34,-123.09,4.7
452,mandera,0,ET,1548867524,34,79.35,3.94,41.86,5.86
453,novopokrovka,48,RU,1548867525,44,8.07,45.85,134.51,10.22
454,sept-iles,90,CA,1548864000,78,15.8,50.2,-66.38,23.04
455,riyadh,75,SA,1548864000,28,68.0,24.63,46.72,11.41
456,sarakhs,75,TM,1548864000,87,44.6,36.54,61.16,2.24
457,hofn,0,IS,1548867525,100,29.04,64.25,-15.21,16.49
458,ostersund,0,SE,1548865200,84,-0.41,63.18,14.64,4.7
459,maceio,75,BR,1548864000,54,84.2,-9.67,-35.74,11.41
460,mwinilunga,80,ZM,1548867526,99,64.46,-11.73,24.43,2.95
461,moerai,76,PF,1548867526,98,80.21,-22.43,-151.33,27.11
462,rapid city,20,US,1548866100,60,15.98,44.08,-103.23,4.41
463,mezen,88,RU,1548867527,69,9.74,65.85,44.24,8.66
464,karasjok,75,NO,1548865200,78,17.6,69.47,25.52,33.33
465,elko,1,US,1548863760,73,21.02,40.83,-115.76,3.36
466,voloshka,88,RU,1548867528,91,25.13,61.33,40.09,10.78
467,kaduna,0,NG,1548867528,37,80.52,10.52,7.44,4.74
468,antofagasta,0,CL,1548864000,57,78.8,-23.65,-70.4,14.99
469,sibolga,44,ID,1548867529,100,68.06,1.74,98.78,2.39
470,aksu,0,KZ,1548865800,77,3.2,52.04,76.93,11.18
471,innisfail,90,CA,1548864000,78,15.8,52.02,-113.95,6.93
472,laramie,1,US,1548863880,31,30.38,41.31,-105.59,18.34
473,fuxin,0,CN,1548867530,34,-1.2,42.02,121.65,2.95
474,crestview,1,US,1548866100,33,42.98,30.76,-86.57,9.17
475,scottsbluff,1,US,1548863580,83,10.94,41.87,-103.67,6.93
476,cascais,75,PT,1548864000,87,59.0,38.7,-9.42,13.87
477,stromness,90,CA,1548865560,71,1.4,42.87,-79.55,21.92
478,gorontalo,48,ID,1548867531,95,74.18,0.54,123.06,2.28
479,tirumala,20,IN,1548865800,69,75.2,13.68,79.35,5.82
480,samfya,64,ZM,1548867532,92,70.94,-11.37,29.56,5.41
481,jalu,0,LY,1548867532,30,52.49,29.03,21.55,6.53
482,orito,75,CO,1548864000,83,80.6,0.67,-76.88,3.36
483,ayan,92,TR,1548867533,92,33.59,40.67,33.6,1.95
484,flinders,8,AU,1548865800,100,71.6,-34.58,150.85,3.36
485,nemuro,76,JP,1548867533,92,34.31,43.32,145.57,22.41
486,camabatela,80,AO,1548867534,99,66.44,-8.19,15.37,1.39
487,bagenalstown,20,IE,1548865800,80,35.6,52.7,-6.96,4.7
488,roros,20,NO,1548863400,91,-0.41,62.57,11.38,3.36
489,antalaha,56,MG,1548867534,89,79.44,-14.9,50.28,11.56
490,bridlington,20,GB,1548865200,100,35.6,54.08,-0.19,2.24
491,manokwari,80,ID,1548867535,100,80.39,-0.87,134.08,7.31
492,celinac,75,BA,1548865800,90,32.0,44.72,17.33,3.36
493,east stroudsburg,20,US,1548867240,45,26.96,41.0,-75.18,12.75
494,mnogovershinnyy,68,RU,1548867536,76,-0.62,53.94,139.92,1.39
495,san quintin,0,PH,1548867536,80,59.46,17.54,120.52,3.06
496,gladstone,40,AU,1548865800,78,77.0,-23.84,151.26,8.05
497,medea,40,DZ,1548865800,63,60.8,36.27,2.77,5.82
498,bilma,0,NE,1548867538,28,60.59,18.69,12.92,3.74
499,mogadouro,92,PT,1548867538,98,44.93,41.34,-6.71,12.68
500,wewak,44,PG,1548867538,100,75.75,-3.55,143.63,3.4
501,beloha,0,MG,1548867539,58,75.89,-25.17,45.06,17.49
502,baza,56,ES,1548867539,72,39.39,37.49,-2.77,3.96
503,hirara,0,JP,1548867539,100,71.61,24.8,125.28,12.46
504,collie,20,AU,1548867540,53,60.81,-33.36,116.15,13.47
505,coquimbo,20,CL,1548864000,77,68.0,-29.95,-71.34,14.99
506,acari,20,BR,1548867540,34,92.94,-6.44,-36.64,5.97
507,eureka,1,US,1548866100,100,46.4,40.8,-124.16,5.82
508,lucea,75,JM,1548864000,88,73.4,18.44,-78.17,10.29
509,tocopilla,48,CL,1548867541,81,72.56,-22.09,-70.2,4.74
510,taltal,44,CL,1548867541,67,72.29,-25.41,-70.49,5.19
511,pisco,0,PE,1548864000,30,71.6,-13.71,-76.2,10.29
512,tunceli,75,TR,1548863400,75,42.8,39.11,39.55,8.05
513,maroantsetra,92,MG,1548867542,100,74.49,-15.43,49.74,5.64
514,middelburg,24,ZA,1548867542,82,65.04,-25.77,29.46,4.63
515,bonanza,12,NI,1548867543,74,78.45,14.03,-84.62,5.19
516,mo i rana,0,NO,1548865200,84,-0.41,66.32,14.15,5.82
517,mocuba,0,MZ,1548867543,65,79.49,-16.84,36.99,6.64
518,fairbanks,1,US,1548863880,94,14.54,64.84,-147.72,9.44
519,kutum,32,SD,1548867544,42,73.68,14.2,24.66,6.98
520,rovaniemi,75,FI,1548865200,92,12.2,66.5,25.72,5.82
521,singaraja,92,ID,1548867545,100,72.78,-8.11,115.08,1.83
522,portoferraio,75,IT,1548863700,80,41.0,42.81,10.31,17.22
523,bako,0,NG,1548864000,28,95.0,9.68,6.4,4.7
524,amapa,40,HN,1548864000,73,77.0,15.09,-87.97,2.24
525,udachnyy,24,RU,1548867546,0,-49.4,66.42,112.4,2.51
526,longkou,76,CN,1548867546,100,30.57,37.64,120.47,21.52
527,kuvshinovo,92,RU,1548867546,91,27.51,57.03,34.18,3.29
528,kitimat,90,CA,1548864000,100,28.4,54.02,-128.69,1.61
529,sola,20,NO,1548865200,59,37.4,58.89,5.65,18.34
530,paamiut,8,GL,1548867547,100,27.69,61.99,-49.67,22.19
531,desbiens,90,CA,1548864000,84,8.6,48.42,-71.95,3.36
532,minusinsk,0,RU,1548865800,37,21.2,53.7,91.7,11.18
